[
    { "name": "tigbao", "barangay": "tigbao", "latitude": 11.2375868, "longitude": 124.7133698, "venue": "Tigbao Elementary School", "image": "tigbaoES.jpg", "punong_barangay": "Benjamin I. Engrato" },
    { "name": "piloro", "barangay": "piloro", "latitude": 11.236402318756134, "longitude": 124.72036848648168, "venue": "Piloro Barangay Hall", "image": "Car.jpg", "punong_barangay": "Eutiquio P. Dauplo" },
    { "name": "camansi", "barangay": "camansi", "latitude": 11.21849108135362, "longitude": 124.71573441769323, "venue": "Camansi Elementary School", "image": "camansiES.jpg", "punong_barangay": "Glicerio T. Yacap" },
    { "name": "tinaguban", "barangay": "tinaguban", "latitude": 11.2331392, "longitude": 124.7056969, "venue": "Tinaguban Elementary School", "image": "tinagubanES.jpg", "punong_barangay": "Pedro T. Ingrato" },
    { "name": "jugaban", "barangay": "jugaban", "latitude": 11.2991697, "longitude": 124.6943891, "venue": "JugabanPopup - Jugaban National High School", "image": "jugabanNHS.jpg", "punong_barangay": "Pedro D. Royo" },
    { "name": "san_mateo", "barangay": "san_mateo", "latitude": 11.2691869, "longitude": 124.7259261, "venue": "Evacuation Center 1 (Baybay)", "image": "carigaraEC.jpg" , "punong_barangay": "Christopher T. Cañamaque" },
    { "name": "guindapunan_west", "barangay": "guindapunan_west", "latitude": 11.301429126326795, "longitude": 124.69863695804366, "venue": "West Guindapunan Chapell", "image": "Car.jpg" , "punong_barangay": "Anita M. Villalino" },
    { "name": "guindapunan_east", "barangay": "guindapunan_east", "latitude": 11.302470879288492, "longitude": 124.70122314248277, "venue": "Guindapunan Elementary School", "image": "guindapunanES.jpg" , "punong_barangay": "Wendell J. Agunos" },
    { "name": "barugohay_norte1", "barangay": "barugohay_norte", "latitude": 11.3033755, "longitude":124.7075573, "venue": "Carigara National Professional School", "image": "cnvs.jpg" , "punong_barangay": "Grace B. Cabello" },
    { "name": "barugohay_norte2", "barangay": "barugohay_norte", "latitude": 11.3032152, "longitude":124.7066521, "venue": "Eastern Visayas State University", "image": "evsucc.jpg" , "punong_barangay": "Grace B. Cabello" },
    { "name": "parena", "barangay": "parena", "latitude": 11.298482428935586, "longitude": 124.71232105275067, "venue": "Parena Barangay Hall", "image": "Car.jpg" , "punong_barangay": "Felipe M. Ramos" },
    { "name": "sawang", "barangay": "sawang", "latitude": 11.2992552, "longitude": 124.6869251, "venue": "Sawang Catholic Chapel", "image": "sawangchapel.jpg", "punong_barangay": "Garnet Dax M. Tonolete" },
    { "name": "baybay", "barangay": "baybay", "latitude": 11.3001395, "longitude":124.6866239, "venue": "Cong. Alberto T. Acuja Memorial Central School", "image": "ptaES.jpg", "punong_barangay": "Raniel A. Marquez" },
    { "name": "ponong1", "barangay": "ponong", "latitude": 11.297020125112155, "longitude": 124.68252689499673, "venue": "Ponong Elementary School", "image": "ponongES.jpg", "punong_barangay": "Arvin N. Urmeneta" },
    { "name": "ponong2", "barangay": "ponong", "latitude": 11.2978262, "longitude": 124.6824307, "venue": "Carigara National High School", "image": "carigaraNHS.jpg", "punong_barangay": "Arvin N. Urmeneta" },
    { "name": "ponong3", "barangay": "ponong", "latitude": 11.3006686, "longitude": 124.6863469, "venue": "Carigara Parish Church", "image": "carigarachurch.jpg", "punong_barangay": "Arvin N. Urmeneta" },
    { "name": "ponong4", "barangay": "ponong", "latitude": 11.30026, "longitude": 124.6851016, "venue": "Holy Cross College of Carigara", "image": "hccci.jpg", "punong_barangay": "Arvin N. Urmeneta" },
    { "name": "ponong5", "barangay": "ponong", "latitude": 11.3012958, "longitude": 124.6868381, "venue": "Cassidy Elementary School", "image": "cassidyES.jpg", "punong_barangay": "Arvin N. Urmeneta" },
    { "name": "west_visoria2", "barangay": "west_visoria", "latitude": 11.30218474574454, "longitude": 124.68133417635846, "venue": "Seventh Day Adventist Church", "image": "seventhadventist.jpg", "punong_barangay": "Ismael N. Vega" },
    { "name": "west_visoria3", "barangay": "west_visoria", "latitude": 11.30218474574454, "longitude": 124.68133417635846, "venue": "United Christian Church of the Philippines", "image": "unitedchurch.jpg", "punong_barangay": "Ismael N. Vega" },
    { "name": "east_visoria", "barangay": "east_visoria", "latitude": 11.2989631, "longitude": 124.6786982, "venue": "New Life Christian Church", "image": "newlifecarigara.jpg", "punong_barangay": "Joena E. Naagas" },
    { "name": "tangnan", "barangay": "tangnan", "latitude": 11.297766, "longitude": 124.6702727, "venue": "Tangnan Barangay Hall", "image": "tangnanBH.jpg", "punong_barangay": "Francisco C. Nivera" },
    { "name": "nauguisan", "barangay": "nauguisan", "latitude": 11.294851119638508, "longitude": 124.6622293581704, "venue": "Nauguisan Elementary School", "image": "nauguisanES.jpg", "punong_barangay": "Eduardo D. Villaruel" },
    { "name": "san_juan", "barangay": "san_juan", "latitude": 11.289751866680746, "longitude": 124.66142138289877, "venue": "San Juan Barangay Hall", "image": "sanjuanBH.jpg", "punong_barangay": "Terencio M. Lianza" },
    { "name": "manloy", "barangay": "manloy", "latitude": 11.274892635379118, "longitude": 124.65437594384838, "venue": "Manloy Elementary School", "image": "Car.jpg", "punong_barangay": "Eduardo I. Combinido" },
    { "name": "caghalo", "barangay": "caghalo", "latitude": 11.260928247291645, "longitude": 124.66692030297861, "venue": "Caghalo Elementary School", "image": "caghaloES.jpg", "punong_barangay": "Lito I. Ligutan" },
    { "name": "upper_hiraan1", "barangay": "upper_hiraan", "latitude": 11.2648, "longitude": 124.6759, "venue": "Upper Hiraan Barangay Hall", "image": "Car.jpg", "punong_barangay": "Joel R. Gaquit" },
    { "name": "upper_hiraan2", "barangay": "upper_hiraan", "latitude": 11.265246762928768, "longitude": 124.67697129266298, "venue": "Hiraan Elementary School", "image": "hiraanES.jpg", "punong_barangay": "Joel R. Gaquit" },
    { "name": "lower_hiraan", "barangay": "lower_hiraan", "latitude": 11.2795, "longitude": 124.6786, "venue": "Lower Hiraan Barangay Hall", "image": "Car.jpg", "punong_barangay": "Jocelyn V. Caballes" },
    { "name": "libo", "barangay": "libo", "latitude": 11.266721745379868, "longitude": 124.68083971796977, "venue": "Libo Barangay Hall", "image": "liboBH.jpg", "punong_barangay": "Constantino W. Cadiente Jr." },
    { "name": "canlampay1", "barangay": "canlampay", "latitude": 11.265940493645303, "longitude": 124.68529656173274, "venue": "Canlampay Barangay Hall", "image": "Car.jpg", "punong_barangay": "Ramil F. Narbonita" },
    { "name": "canlampay2", "barangay": "canlampay", "latitude": 11.263751626499598, "longitude": 124.68557038762572, "venue": "Canlampay Elementary School", "image": "canlampayES.jpg", "punong_barangay": "Ramil F. Narbonita" },
    { "name": "hiluctogan", "barangay": "hiluctogan", "latitude": 11.2473838, "longitude": 124.6878364, "venue": "Hiluctogan Elementary School", "image": "hiluctoganES.jpg", "punong_barangay": "Narciso L. Anos" },
    { "name": "bislig1", "barangay": "bislig", "latitude": 11.292457563772857, "longitude": 124.6772379129253, "venue": "Bislig Barangay Hall", "image": "bisligBH.jpg", "punong_barangay": "Romeo M. Javines" },
    { "name": "bislig2", "barangay": "bislig", "latitude": 11.293430779370212, "longitude": 124.67548820806826, "venue": "Bislig Evacuation Center", "image": "bisligEvac.jpg", "punong_barangay": "Romeo M. Javines" },
    { "name": "canal", "barangay": "canal", "latitude": 11.2878292, "longitude": 124.6825409, "venue": "Canal Barangay Hall", "image": "canalBH.jpg", "punong_barangay": "Cresente L. Llagas" },
    { "name": "uyawan", "barangay": "uyawan", "latitude": 11.282287385990031, "longitude": 124.68409130036338, "venue": "Uyawan Barangay Hall", "image": "uyawanBH.jpg", "punong_barangay": "Prima J. Azores" },
    { "name": "barayong", "barangay": "barayong", "latitude": 11.2682,"longitude": 124.6722, "venue": "Barayong Barangay Hall", "image": "barayongBH.jpg", "punong_barangay": "Julius Cesar N. Caballes" },
    { "name": "lower_sogod", "barangay": "lower_sogod", "latitude": 11.2590973, "longitude": 124.6900857, "venue": "Lower Sogod Elementary School", "image": "sogodES.jpg", "punong_barangay": "Jose L. Platilla Jr." },
    { "name": "upper_sogod", "barangay": "upper_sogod", "latitude": 11.2536, "longitude": 124.6931, "venue": "Upper Sogod Barangay Hall", "image": "uppersogodBH.jpg", "punong_barangay": "Norma M. Inalisan" },
    { "name": "candigahub", "barangay": "candigahub", "latitude": 11.2504379, "longitude": 124.7001859, "venue": "Candigahub Elementary School", "image": "candigahubES.jpg", "punong_barangay": "Jordan O. Inalisan" },
    { "name": "cutay", "barangay": "cutay", "latitude": 11.2650511, "longitude": 124.6986922, "venue": "Cutay Barangay Hall", "image": "cutayBH.jpg", "punong_barangay": "Nestor P. Dagalea" },
    { "name": "pangna", "barangay": "pangna", "latitude": 11.2798,"longitude": 124.7101, "venue": "Pangna Elementary School", "image": "pangnaES.jpg", "punong_barangay": "Genilo C. Nalda" },
    { "name": "baruguhay_sur", "barangay": "baruguhay_sur", "latitude": 11.2709821, "longitude":124.7004102, "venue": "Barugohay Sur Elementary School", "image": "barsurES.jpg", "punong_barangay": "Antonio L. Agunos" },
    { "name": "bagong_lipunan", "barangay": "bagong_lipunan", "latitude": 11.2843, "longitude": 124.6987, "venue": "Bagong Lipunan Barangay Hall", "image": "bagonglipunanBH.jpg", "punong_barangay": "Isaac B. Grabador Jr." },
    { "name": "balilit", "barangay": "balilit", "latitude": 11.28736949670612, "longitude": 124.69583232220117, "venue": "Balilit Elementary School", "image": "balilitES.jpg", "punong_barangay": "Felipe D. Macabansag" },
    { "name": "barugohay_central", "barangay": "barugohay_central", "latitude": 11.2960, "longitude": 124.6986, "venue": "Barugohay Central Barangay Hall", "image": "Car.jpg", "punong_barangay": "Elmer C. Opeña" },
    { "name": "tagak", "barangay": "tagak", "latitude": 11.2872453, "longitude": 124.7160603, "venue": "Tagak Elementary School", "image": "Car.jpg", "punong_barangay": "Johnyl T. Tanginan" },
    { "name": "rizal", "barangay": "rizal", "latitude": 11.286840266447967, "longitude": 124.7166593458391, "venue": "Rizal Barangay Hall", "image": "Car.jpg", "punong_barangay": "Renato M. Capalar" },
    { "name": "sagkahan", "barangay": "sagkahan", "latitude": 11.2811415, "longitude": 124.7225726, "venue": "Ecoville", "image": "Car.jpg", "punong_barangay": "Fernando N. Moriel" },
    { "name": "canfabi", "barangay": "canfabi", "latitude": 11.2662922, "longitude": 124.7085475, "venue": "Canfabi Elementary School", "image": "canfabiES.jpg", "punong_barangay": "Ryan I. Rendora" },
    { "name": "santa_fe", "barangay": "santa_fe", "latitude": 11.2568516, "longitude": 124.7150913, "venue": "Sta. Fe Barangay Hall", "image": "Car.jpg", "punong_barangay": "Janet B. Mendoza" },
    { "name": "parag_um", "barangay": "parag_um", "latitude": 11.257343004963658, "longitude": 124.72799419450331, "venue": "Parag-um Barangay Hall", "image": "paglaumBH.jpg", "punong_barangay": "Judith D. Darantinao" },
    { "name": "cogon", "barangay": "cogon", "latitude": 11.2577, "longitude": 124.7365, "venue": "Cogon Barangay Hall", "image": "Car.jpg", "punong_barangay": "Romeo C. Lirom" },
    { "name": "binibihan", "barangay": "binibihan", "latitude": 11.233367805199322, "longitude": 124.73453629750668, "venue": "Binibihan Elem. School", "image": "binibihanES.jpg", "punong_barangay": "Sisinio B. Alalid Jr." },
    { "name": "macalpi", "barangay": "macalpi", "latitude": 11.2132913924805, "longitude": 124.73425541862093, "venue": "Macalpi Elementary School", "image": "macalpiES.jpg", "punong_barangay": "Ador P. Bodo" },
    { "name": "paglaum", "barangay": "paglaum", "latitude": 11.2045, "longitude": 124.7188, "venue": "Paglaum Barangay Hall", "image": "paglaumBH.jpg", "punong_barangay": "Margie F. Grabador" },
    { "name": "san_isidro", "barangay": "san_isidro", "latitude": 11.204579867259937, "longitude": 124.70810276172983, "venue": "San Isidro Barangay Hall", "image": "sanisidroBH.jpg", "punong_barangay": "Benjiemen Y. Inalisan" }
]
  